,City,Latitude,Longitude,Temperature,Humidity,Clouds %,Wind Speed (mph),Temperature_F
0,sinnamary,5.38,-52.95,27.06,81,22,5.74,80.708
1,rikitea,-23.12,-134.97,23.04,75,0,6.61,73.472
2,saint george,37.1,-113.58,29.78,11,1,2.23,85.604
3,zhigalovo,54.81,105.16,-3.14,80,78,1,26.348
4,betioky,-23.72,44.38,17.76,89,24,2.66,63.968
5,straumen,63.87,11.3,6.83,93,75,4.1,44.294
6,busselton,-33.65,115.33,16.59,68,41,6.36,61.862
7,koroni,36.8,21.95,20.0,69,23,4.88,68.0
8,belle fourche,44.67,-103.85,15.01,33,1,2.1,59.018
9,hithadhoo,-0.6,73.08,28.18,72,100,4.21,82.724
10,thompson,55.74,-97.86,1.0,74,75,8.2,33.8
11,constitucion,-35.33,-72.42,14.13,77,4,5.12,57.434
12,haines junction,60.75,-137.51,3.13,74,84,1.14,37.634
13,vidim,56.41,103.11,-2.56,95,89,1.76,27.392
14,taolanaro,,,,,,,
15,nikolskoye,59.7,30.79,5.46,100,35,0.69,41.828
16,bonfim,3.08,-59.95,28.97,55,42,1.93,84.146
17,saldanha,-33.01,17.94,10.0,76,0,3.6,50.0
18,bredasdorp,-34.53,20.04,9.0,87,16,0.5,48.2
19,yulara,-25.24,130.99,25.0,15,0,6.7,77.0
20,achacachi,-16.05,-68.68,7.5,70,45,4.54,45.5
21,iranshahr,27.2,60.68,12.87,31,0,1.24,55.166
22,cabo san lucas,22.89,-109.91,26.26,88,90,7.2,79.268
23,aitape,-3.14,142.35,30.1,65,60,1.15,86.18
24,severobaykalsk,55.65,109.32,-3.28,80,75,1.35,26.096
25,hofn,64.25,-15.21,7.69,79,33,5.33,45.842
26,guerrero negro,27.98,-114.06,31.09,40,98,7.09,87.962
27,huron,41.15,-82.55,13.5,58,0,0.89,56.3
28,majene,-3.54,118.97,27.84,76,77,3.33,82.112
29,avera,33.19,-82.53,23.51,65,1,2.1,74.318
30,tezu,27.92,96.17,23.4,63,0,1.36,74.12
31,san cristobal,7.77,-72.22,29.0,48,40,7.7,84.2
32,norman wells,65.28,-126.83,-6.0,62,90,1.5,21.2
33,kavaratti,10.57,72.64,27.2,79,64,8.51,80.96
34,chopovychi,50.83,28.95,15.05,81,74,4.08,59.09
35,darasun,51.67,114,-9.0,85,0,3,15.8
36,katsuura,35.13,140.3,20.26,72,75,4.6,68.468
37,mataura,-46.19,168.86,6.35,91,83,4.42,43.43
38,new norfolk,-42.78,147.06,12.99,53,31,1.34,55.382
39,neuquen,-38.95,-68.06,26.0,19,2,8.2,78.8
40,illoqqortoormiut,,,,,,,
41,portland,45.52,-122.68,16.03,67,90,5.1,60.854
42,puri,19.8,85.85,25.0,100,75,3.1,77.0
43,sao joao da barra,-21.64,-41.05,23.07,87,54,9.78,73.526
44,souillac,-20.52,57.52,23.0,83,40,3.6,73.4
45,bataipora,-22.3,-53.27,27.02,49,55,1.58,80.636
46,kaitangata,-46.28,169.85,6.11,76,63,4.47,42.998000000000005
47,maragogi,-9.01,-35.22,24.25,80,6,4.38,75.65
48,geraldton,-28.77,114.6,20.0,77,90,5.7,68.0
49,prieska,-29.66,22.75,16.98,28,0,3.48,62.564
50,hilo,19.73,-155.09,26.52,58,40,3.1,79.736
51,grand river south east,,,,,,,
52,los llanos de aridane,28.66,-17.92,23.0,78,0,4.6,73.4
53,manama,26.22,50.58,28.0,69,0,2.1,82.4
54,east london,-33.02,27.91,14.77,68,10,6.06,58.586
55,xuchang,34.02,113.82,12.0,93,90,5,53.6
56,gao,16.64,1.64,32.35,15,33,3.01,90.23
57,alappuzha,9.49,76.33,26.06,85,62,6.55,78.908
58,kaman,27.65,77.27,25.32,51,23,1.55,77.576
59,bambous virieux,-20.34,57.76,23.16,83,40,3.6,73.688
60,kodiak,57.79,-152.41,9.0,81,75,3.1,48.2
61,bathsheba,13.22,-59.52,27.78,76,25,2.39,82.004
62,sydney,-33.87,151.21,19.35,68,40,6.7,66.83
63,dabhol,17.6,73.17,23.85,95,100,0.81,74.93
64,butaritari,3.07,172.79,27.9,74,53,8,82.22
65,mackay,-21.15,149.2,25.38,54,43,8.2,77.684
66,miramar,25.99,-80.23,27.88,74,1,3.6,82.184
67,blagoyevo,63.37,47.92,5.68,88,100,3.15,42.224000000000004
68,champerico,14.3,-91.92,22.56,94,90,4.1,72.608
69,yerbogachen,61.28,108.01,-4.53,92,100,3.96,23.846
70,lebu,-37.62,-73.65,11.19,90,3,9.2,52.141999999999996
71,grand centre,,,,,,,
72,marawi,8,124.29,24.83,77,58,1.11,76.69399999999999
73,ulladulla,-35.35,150.47,15.7,82,75,2.6,60.26
74,codrington,-38.27,141.97,15.57,75,95,2.89,60.025999999999996
75,wahran,,,,,,,
76,sentyabrskiy,,,,,,,
77,lagoa,39.05,-27.98,20.27,77,73,5.53,68.486
78,georgetown,5.41,100.34,23.95,94,20,1,75.11
79,cape town,-33.93,18.42,13.17,71,7,3.6,55.706
80,honiara,-9.43,159.95,30.0,66,75,3.1,86.0
81,isheyevka,54.42,48.27,6.0,75,100,1,42.8
82,payakumbuh,-0.22,100.63,22.14,81,100,1.05,71.852
83,valparaiso,-33.04,-71.63,11.46,100,90,1.5,52.628
84,alice springs,-23.7,133.88,23.49,20,0,4.1,74.282
85,luderitz,-26.65,15.16,20.19,41,0,7.62,68.342
86,tsihombe,,,,,,,
87,fort saint john,,,,,,,
88,jangaon,17.72,79.18,21.9,97,97,3,71.42
89,ilulissat,69.22,-51.1,7.0,48,49,5.7,44.6
90,volnoye,47.64,34.81,13.95,82,12,2,57.11
91,tessalit,20.2,1.01,29.92,14,0,4.35,85.85600000000001
92,puerto madryn,-42.77,-65.04,21.44,32,71,10,70.592
93,qandala,11.47,49.87,27.35,50,0,0.75,81.23
94,calvinia,-31.47,19.78,15.24,32,0,1.78,59.432
95,santo angelo,-28.3,-54.26,20.0,61,0,3.93,68.0
96,mokhotlong,-29.29,29.07,7.75,57,0,0.58,45.95
97,koslan,63.46,48.9,5.57,86,100,3.19,42.025999999999996
98,sovetskiy,61.36,63.58,7.54,85,98,4.28,45.572
99,ocampo,21.65,-101.5,17.44,70,75,7.64,63.392
100,qena,26.16,32.72,28.0,34,48,2.1,82.4
101,san patricio,28.02,-97.52,28.74,66,40,5.7,83.732
102,bara,10.37,10.73,24.49,89,25,2.41,76.082
103,nemuro,43.32,145.57,12.16,79,87,0.27,53.888
104,homer,59.64,-151.55,8.47,70,1,2.1,47.246
105,puerto ayora,-0.74,-90.35,20.01,88,83,3.7,68.018
106,augusto correa,-1.02,-46.63,26.11,75,38,2.67,78.998
107,faya,18.39,42.45,15.5,49,0,2.1,59.9
108,gairo,39.85,9.5,15.0,58,5,5.1,59.0
109,korla,41.76,86.15,6.65,54,0,1.85,43.97
110,tazovskiy,67.47,78.7,3.31,96,100,6.32,37.958
111,palana,59.12,159.97,5.03,66,100,2.87,41.054
112,coihaique,-45.58,-72.07,8.0,45,75,3.6,46.4
113,jamestown,42.1,-79.24,9.99,71,1,3.1,49.982
114,ancud,-41.87,-73.82,8.43,62,40,5.1,47.174
115,svetlyy,54.67,20.13,10.48,76,40,10,50.864000000000004
116,touros,-5.2,-35.46,25.0,78,40,2.1,77.0
117,tizimin,21.15,-88.15,25.38,91,89,2.93,77.684
118,lida,53.88,25.3,12.71,92,100,8.56,54.878
119,hereford,52.06,-2.71,9.21,92,75,4.36,48.578
120,arraial do cabo,-22.97,-42.03,22.8,87,1,13.26,73.04
121,sioux lookout,50.1,-91.92,7.0,48,90,7.2,44.6
122,abu samrah,35.3,37.18,17.01,89,48,2.64,62.618
123,moose factory,51.26,-80.61,9.0,66,1,2.1,48.2
124,poum,-20.23,164.02,24.31,84,0,4.27,75.758
125,cabedelo,-6.98,-34.83,25.0,83,75,2.6,77.0
126,namatanai,-3.67,152.43,26.24,84,100,1.31,79.232
127,ngukurr,,,,,,,
128,san miguel,13.48,-88.18,24.77,91,70,1.54,76.586
129,klaksvik,62.23,-6.59,6.0,100,40,0.5,42.8
130,cervo,43.67,-7.41,11.14,88,73,5.17,52.052
131,son la,21.32,103.9,19.83,92,100,0.72,67.69399999999999
132,hobart,-42.88,147.33,13.24,62,75,2.6,55.832
133,kavieng,-2.57,150.8,28.25,72,100,2.93,82.85
134,mirandola,44.89,11.07,7.39,76,2,4.6,45.302
135,carnarvon,-24.87,113.63,20.0,88,47,5.7,68.0
136,wolmaranstad,,,,,,,
137,namibe,-15.2,12.15,16.74,85,25,1.68,62.132
138,sao filipe,14.9,-24.5,26.2,77,8,2,79.16
139,honningsvag,70.98,25.97,4.96,78,98,7.55,40.928
140,caucaia,-3.74,-38.65,26.83,74,20,4.1,80.294
141,arlit,18.74,7.39,31.92,11,4,2.51,89.456
142,nizhniy kuranakh,58.84,125.49,-5.23,93,100,5.13,22.586
143,minab,27.15,57.08,21.0,12,0,4.1,69.8
144,krasnyy yar,46.53,48.35,8.0,75,0,4,46.4
145,ponta do sol,32.67,-17.1,18.68,73,20,7.2,65.624
146,sitka,57.05,-135.33,10.0,66,20,1.5,50.0
147,palu,-0.89,119.87,27.48,71,99,1.37,81.464
148,toma,12.77,-2.88,27.28,58,13,4.24,81.104
149,bonavista,48.65,-53.11,6.11,86,0,1.34,42.998000000000005
150,olinda,-8.01,-34.86,26.0,74,40,6.2,78.8
151,camargo,27.67,-105.17,27.73,22,82,3.29,81.914
152,vagay,57.94,69.02,6.47,85,75,3.52,43.646
153,shingu,33.73,135.98,19.0,63,20,2.6,66.2
154,port hardy,50.7,-127.42,11.0,87,75,4.1,51.8
155,ilebo,-4.32,20.58,21.52,94,5,0.32,70.736
156,san quintin,30.48,-115.95,28.79,33,0,6.25,83.822
157,tanete,-3.94,119.78,28.81,66,80,3.27,83.85799999999999
158,kirakira,-10.45,161.92,29.33,66,95,2.01,84.794
159,jesus de otoro,14.48,-87.98,22.0,100,75,3.6,71.6
160,tabou,4.42,-7.35,24.71,88,29,2.99,76.47800000000001
161,chuy,-33.7,-53.46,11.85,94,15,1.82,53.33
162,mouzouras,35.53,24.15,20.0,72,20,4.6,68.0
163,saint anthony,45.02,-93.22,14.76,31,40,6.2,58.568
164,camabatela,-8.19,15.38,16.58,100,40,1.38,61.843999999999994
165,vaitape,-16.52,-151.75,26.46,73,7,4.05,79.628
166,sept-iles,50.2,-66.38,5.0,80,40,5.1,41.0
167,barentsburg,,,,,,,
168,tahta,26.77,31.5,25.0,38,50,3.1,77.0
169,zasova,49.47,18.04,6.38,93,90,2.6,43.484
170,balurghat,25.22,88.77,24.99,81,52,1.8,76.982
171,sibolga,1.74,98.78,25.17,79,100,2.07,77.30600000000001
172,padang,-0.95,100.35,26.07,72,100,1.53,78.926
173,kazalinsk,,,,,,,
174,cap malheureux,-19.98,57.61,23.33,79,1,1.34,73.994
175,atuona,-9.8,-139.03,25.74,74,32,7.86,78.332
176,iqaluit,63.75,-68.51,-3.17,79,20,3.6,26.294
177,ribeira grande,38.52,-28.7,20.68,77,59,5.1,69.224
178,kashi,39.45,75.98,12.0,40,75,3,53.6
179,belushya guba,,,,,,,
180,mareeba,-17,145.43,23.46,88,90,6.7,74.22800000000001
181,polyarnyy,69.2,33.45,1.0,100,75,2,33.8
182,pevek,69.7,170.31,-1.09,85,65,5.34,30.038
183,yellowknife,62.46,-114.35,-3.21,53,75,11.3,26.222
184,mahebourg,-20.41,57.7,23.0,83,40,3.6,73.4
185,bella vista,36.43,-94.23,24.0,27,1,2.1,75.2
186,avarua,-21.21,-159.78,23.0,53,18,3.6,73.4
187,albany,42.6,-73.97,11.67,89,100,2.91,53.006
188,omboue,-1.57,9.26,23.68,86,96,2.87,74.624
189,saint-louis,16.33,-15,32.72,40,62,2.96,90.896
190,hearst,49.68,-83.67,8.64,84,83,3.38,47.552
191,timmins,48.47,-81.33,13.0,54,90,6.2,55.4
192,fort nelson,58.81,-122.7,-1.0,80,90,2.6,30.2
193,belaya gora,68.53,146.42,-6.43,95,69,2.07,20.426000000000002
194,sarangani,5.4,125.46,28.06,73,98,1.96,82.508
195,hoa binh,20.81,105.34,24.0,73,90,4.1,75.2
196,half moon bay,37.46,-122.43,24.27,60,1,8.2,75.686
197,beidao,34.57,105.89,7.99,72,99,1.47,46.382
198,tura,25.52,90.22,22.73,81,17,1.36,72.914
199,nizhneyansk,,,,,,,
200,imeni poliny osipenko,52.42,136.49,1.57,73,16,1.3,34.826
201,broome,42.25,-75.83,9.16,71,1,3.1,48.488
202,tuktoyaktuk,69.45,-133.04,-5.0,79,90,3.6,23.0
203,inuvik,68.35,-133.72,-5.0,57,90,3.1,23.0
204,ruidoso,33.33,-105.67,23.92,8,1,4.1,75.05600000000001
205,hovd,48.01,91.64,1.19,76,99,1.3,34.142
206,santa isabel do rio negro,-0.41,-65.02,25.57,75,71,1.05,78.026
207,port alfred,-33.59,26.89,13.34,76,5,5.47,56.012
208,marcona,,,,,,,
209,fortuna,40.6,-124.16,21.41,68,1,6.2,70.538
210,bengkulu,-3.8,102.27,24.7,86,97,1.69,76.46
211,san pedro,14.35,121.02,25.77,94,90,1.5,78.386
212,oranjemund,-28.55,16.43,14.8,74,0,6.57,58.64
213,tulu bolo,8.67,38.22,13.02,72,39,0.43,55.436
214,saint-philippe,-21.36,55.77,21.05,64,90,2.6,69.89
215,ostrow mazowiecka,52.8,21.9,10.0,100,100,4.92,50.0
216,mar del plata,-38,-57.56,13.88,93,0,4.1,56.984
217,mogadishu,2.04,45.34,25.99,84,16,4.85,78.782
218,pontiac,42.64,-83.29,15.13,36,75,3.6,59.234
219,nanortalik,60.14,-45.24,3.11,91,100,5.59,37.598
220,faanui,-16.48,-151.75,25.99,74,7,4.05,78.782
221,dikson,73.51,80.55,-1.62,93,100,1.51,29.084
222,airai,-8.93,125.41,23.21,36,4,2.02,73.778
223,swift current,50.28,-107.8,8.0,42,20,6.7,46.4
224,saskylakh,71.92,114.08,-11.45,94,73,2.17,11.39
225,yura,-16.25,-71.68,15.23,37,82,0.93,59.414
226,melbu,68.5,14.83,6.0,87,75,4.1,42.8
227,salalah,17.02,54.09,26.0,74,0,1.5,78.8
228,viedma,-40.81,-63,25.0,25,0,0.89,77.0
229,west bay,19.37,-81.42,29.3,79,20,3.1,84.74
230,tagusao,9.19,117.81,28.54,70,98,1.41,83.372
231,narrabri,-30.32,149.78,23.0,35,0,3.6,73.4
232,tobol,52.68,62.58,8.01,53,46,2.75,46.418
233,aksarka,66.56,67.8,2.37,93,100,8.97,36.266
234,kununurra,-15.77,128.73,30.0,30,0,2.6,86.0
235,attawapiskat,,,,,,,
236,olafsvik,64.89,-23.71,8.13,92,100,12.72,46.634
237,quatre cocos,-20.21,57.76,23.17,83,40,3.6,73.706
238,umzimvubu,,,,,,,
239,ahipara,-35.17,173.17,17.07,62,100,3.16,62.726
240,macusani,-14.08,-70.43,3.74,77,97,2.41,38.732
241,itarema,-2.92,-39.92,25.95,76,34,7.43,78.71
242,tonota,-21.48,27.48,19.47,49,0,1.76,67.04599999999999
243,baiyin,36.56,104.21,3.0,69,55,2.43,37.4
244,talaya,61.38,152.75,3.04,76,99,9.65,37.472
245,mount gambier,-37.83,140.77,15.0,77,40,2.6,59.0
246,vyartsilya,62.18,30.69,5.43,95,57,0.87,41.774
247,tambura,5.6,27.47,20.08,96,73,0.83,68.14399999999999
248,atasu,48.68,71.64,5.8,83,1,0.28,42.44
249,tyulyachi,55.89,50.24,11.0,62,100,4,51.8
250,randolph,35.7,-79.82,19.36,88,1,3.96,66.848
251,qaanaaq,77.48,-69.36,-5.67,79,0,2.74,21.794
252,nishihara,26.18,127.76,24.01,69,20,2.1,75.218
253,atherton,53.52,-2.49,10.85,78,68,3.74,51.53
254,demba,-5.51,22.27,20.21,97,7,0.79,68.378
255,vanimo,-2.67,141.3,29.26,71,61,1.4,84.668
256,vilyuysk,63.76,121.62,-7.37,90,91,3.15,18.734
257,strezhevoy,60.73,77.59,5.0,93,100,5,41.0
258,punta arenas,-53.15,-70.92,5.0,75,75,11.8,41.0
259,marsh harbour,26.54,-77.06,27.75,71,100,5.79,81.95
260,nalut,30.33,10.85,14.24,40,0,4.2,57.632
261,canto do buriti,-8.11,-42.94,27.25,26,7,1.77,81.05
262,pyatigorskiy,43.97,43.26,9.43,87,29,3,48.974000000000004
263,lima,-12.04,-77.03,16.83,82,90,7.2,62.294
264,myitkyina,25.38,97.4,22.13,93,14,1.04,71.834
265,bafq,31.61,55.41,6.28,46,0,0.48,43.304
266,carbondale,37.73,-89.22,19.36,40,1,3.1,66.848
267,madimba,-10.4,40.33,24.32,90,0,3.13,75.776
268,rio grande,-32.03,-52.1,13.38,87,23,1.49,56.084
269,te anau,-45.42,167.72,6.41,77,56,2.28,43.538
270,pisco,-13.7,-76.22,17.91,77,5,9.3,64.238
271,cabo rojo,18.09,-67.15,25.95,91,75,0.45,78.71
272,louisbourg,,,,,,,
273,ketchikan,55.34,-131.65,10.0,66,1,6.2,50.0
274,yabrud,33.97,36.66,12.93,67,79,4.1,55.274
275,waingapu,-9.66,120.26,28.84,65,54,3.42,83.912
276,sandpoint,48.28,-116.55,9.46,100,90,2.6,49.028000000000006
277,chapais,49.78,-74.85,6.0,100,90,3.1,42.8
278,mentok,,,,,,,
279,kemin,42.78,75.69,7.38,56,0,2.01,45.284
280,canton,23.12,113.25,25.24,78,40,1,77.432
281,mount isa,-20.73,139.5,26.0,44,0,7.2,78.8
282,esso,55.93,158.7,2.56,84,100,4.15,36.608
283,khash,28.22,61.22,6.96,49,0,3.4,44.528
284,flinders,-34.58,150.86,18.99,69,62,1.79,66.182
285,mecca,21.43,39.83,25.76,18,0,2.28,78.368
286,gorontalo,0.54,123.06,28.79,66,90,0.76,83.822
287,tasiilaq,65.61,-37.64,3.0,93,100,6.2,37.4
288,nyurba,63.28,118.33,-7.83,97,86,1.36,17.906
289,shebunino,46.43,141.86,10.81,70,81,8.45,51.458
290,flin flon,54.77,-101.86,2.0,59,75,3.6,35.6
291,batesville,35.77,-91.64,20.28,43,1,1.5,68.504
292,talnakh,69.49,88.4,-2.0,100,75,14,28.4
293,sistranda,63.73,8.83,9.0,61,75,5.7,48.2
294,mezen,65.85,44.24,0.5,94,10,2.2,32.9
295,baijiantan,45.63,85.18,6.89,60,1,2.46,44.402
296,dingle,11,122.67,24.9,91,100,1.59,76.82
297,merauke,-8.47,140.33,29.32,66,52,5.09,84.776
298,victoria,22.29,114.16,24.36,78,100,2.24,75.848
299,narok,-1.08,35.86,15.91,78,88,2.7,60.638
300,manjacaze,-24.71,33.88,19.29,77,0,2.48,66.722
301,filadelfia,39.95,-75.16,16.53,72,90,5.1,61.754000000000005
302,zlatoustovsk,,,,,,,
303,kapaa,22.08,-159.32,28.78,66,1,5.7,83.804
304,nam tha,,,,,,,
305,gladstone,-23.85,151.25,23.0,49,40,7.2,73.4
306,carutapera,-1.2,-46.02,25.95,79,47,3.38,78.71
307,barawe,,,,,,,
308,lompoc,34.64,-120.46,24.33,50,1,7.7,75.794
309,killybegs,54.63,-8.45,5.56,95,0,0.45,42.007999999999996
310,kholm,59.27,32.85,5.62,97,55,1.22,42.116
311,carmona,14.3,121.02,25.77,94,90,1.5,78.386
312,gunnedah,-30.98,150.25,21.0,35,0,6.7,69.8
313,wanning,18.8,110.4,27.01,87,100,7.97,80.618
314,moree,-29.47,149.85,21.0,46,0,5.1,69.8
315,tevriz,57.51,72.4,5.66,89,85,2.57,42.188
316,oranjestad,12.52,-70.03,30.0,66,20,3.1,86.0
317,dingli,35.86,14.38,18.55,72,20,2.6,65.39
318,locri,38.24,16.26,11.56,97,0,3.95,52.808
319,mokrousovo,55.81,66.77,6.18,72,46,4.08,43.123999999999995
320,mendi,-6.18,143.65,20.03,68,100,1.63,68.054
321,jaranwala,31.33,73.43,20.97,31,0,1.88,69.746
322,emba,48.83,58.14,7.78,48,78,1.43,46.004
323,waitati,-45.75,170.57,8.89,63,25,10.73,48.002
324,tambau,-21.7,-47.27,24.31,48,18,0.76,75.758
325,chok chai,14.73,102.17,23.0,100,40,1,73.4
326,yanam,16.73,82.22,24.93,94,100,0.64,76.874
327,carballo,43.21,-8.69,11.16,93,75,2.1,52.088
328,cyangugu,-2.48,28.91,15.83,85,63,0.2,60.494
329,arman,59.7,150.17,6.06,88,100,9.9,42.908
330,vila franca do campo,37.72,-25.43,20.0,77,40,5.7,68.0
331,udachnyy,66.42,112.4,-10.0,92,40,2,14.0
332,caltzontzin,19.43,-102.01,24.0,73,75,3.1,75.2
333,saint-georges,12.06,-61.75,28.0,83,20,3.75,82.4
334,fethiye,36.62,29.12,23.0,78,75,6.2,73.4
335,grindavik,63.84,-22.43,8.0,100,90,12.3,46.4
336,praia da vitoria,38.73,-27.07,18.95,88,75,6.62,66.11
337,kahului,20.89,-156.47,27.68,43,40,7.7,81.824
338,tasbuget,,,,,,,
339,deputatskiy,69.3,139.9,-10.72,97,75,0.85,12.704
340,maunabo,18.01,-65.9,26.75,100,32,2.29,80.15
341,kaniama,-7.57,24.18,18.91,93,25,0.86,66.038
342,tumannyy,,,,,,,
343,amlagora,22.83,87.33,24.82,90,79,1.83,76.676
344,liverpool,53.41,-2.98,10.56,66,73,0.45,51.008
345,tekeli,44.83,78.82,4.14,61,0,2.62,39.452
346,nador,35.17,-2.93,16.62,68,0,1.61,61.916000000000004
347,shahdadkot,27.85,67.91,22.73,14,0,2.96,72.914
348,kasama,-10.21,31.18,18.42,78,59,1.81,65.156
349,trincomalee,8.57,81.23,27.54,73,99,10.29,81.572
350,cidreira,-30.18,-50.21,15.55,83,1,1.73,59.99
351,sambava,-14.27,50.17,21.8,88,4,3.49,71.24000000000001
352,cherskiy,68.75,161.3,0.45,94,100,7.05,32.81
353,baghdad,33.34,44.4,21.0,30,0,2.6,69.8
354,naze,28.37,129.48,26.51,69,40,3.6,79.718
355,buchanan,5.88,-10.05,25.0,94,40,1.43,77.0
356,lata,40.16,-8.33,11.93,89,29,1.34,53.474000000000004
357,ovalle,-30.6,-71.2,12.98,81,2,1.8,55.364000000000004
358,kilindoni,-7.91,39.67,26.46,81,9,5.16,79.628
359,bluff,-46.6,168.33,7.68,61,90,9.18,45.824
360,rocha,-34.48,-54.33,10.66,95,1,1.33,51.188
361,nynashamn,58.9,17.95,5.09,93,35,2.1,41.162
362,paraiso,9.84,-83.87,19.73,88,40,2.6,67.514
363,puerto del rosario,28.5,-13.86,22.0,83,0,8.7,71.6
364,along,28.17,94.77,19.45,85,12,0.77,67.00999999999999
365,jalu,29.03,21.55,20.8,57,0,6.71,69.44
366,katherine,-14.47,132.27,30.0,62,5,3.6,86.0
367,san andres,12.58,-81.7,29.0,79,75,4.1,84.2
368,sorvag,,,,,,,
369,chase,50.82,-119.69,7.22,94,100,1.76,44.996
370,san javier,37.81,-0.84,16.92,58,36,2.1,62.456
371,solovetskiy,,,,,,,
372,sheboygan,43.73,-87.93,15.32,39,1,4.1,59.576
373,bonnyville,54.27,-110.73,6.0,38,75,4.6,42.8
374,lulea,65.58,22.15,2.0,93,0,2.6,35.6
375,okhotsk,59.38,143.3,5.97,69,74,10.7,42.745999999999995
376,qinzhou,21.95,108.62,21.81,94,100,9.6,71.258
377,kamenskoye,,,,,,,
378,hermanus,-34.42,19.23,8.89,91,18,0.89,48.002
379,sola,-13.88,167.55,27.86,69,66,1.3,82.148
380,hays,30.05,-98.03,29.03,33,1,3.1,84.25399999999999
381,lukulu,-14.37,23.24,20.34,81,81,2.26,68.612
382,temaraia,,,,,,,
383,jawad,24.6,74.85,22.58,38,99,2.87,72.64399999999999
384,bethanien,-26.5,17.16,15.28,27,0,1.83,59.504
385,havelock,34.88,-76.9,23.0,73,90,3.1,73.4
386,nongan,44.38,125.17,-1.0,63,0,2,30.2
387,bolshoy uluy,,,,,,,
388,hambantota,6.12,81.12,26.67,78,86,10.15,80.006
389,bandipur,27.93,84.42,16.29,87,0,0.95,61.321999999999996
390,clyde river,70.47,-68.59,-3.0,92,75,3.1,26.6
391,pervomayskoye,43.92,46.71,15.72,76,0,6.58,60.29600000000001
392,palmer,42.16,-72.33,9.87,100,90,3.1,49.766
393,grand gaube,-20.01,57.66,23.33,79,1,1.34,73.994
394,nikolayevsk-na-amure,53.14,140.73,2.7,68,6,4.23,36.86
395,sur,22.57,59.53,25.44,48,0,6.26,77.792
396,langsa,4.47,97.97,23.59,92,71,0.63,74.462
397,bhusawal,21.05,75.77,25.01,83,100,2.14,77.018
398,yenagoa,4.92,6.26,23.68,95,85,1.24,74.624
399,luanshya,-13.14,28.42,17.58,88,28,2.45,63.64399999999999
400,kruisfontein,-34,24.73,10.0,86,25,3.1,50.0
401,lingyuan,41.24,119.4,3.92,50,99,1.04,39.056
402,kyshtovka,56.55,76.63,7.28,93,99,4.79,45.104
403,calabozo,8.92,-67.43,23.61,89,90,1.26,74.498
404,aklavik,68.22,-135.01,-4.0,49,75,4.1,24.8
405,malwan,,,,,,,
406,dzhusaly,,,,,,,
407,jasper,37.2,-94.35,26.0,21,1,3.6,78.8
408,port lincoln,-34.73,135.87,22.87,43,68,6.23,73.166
409,bilma,18.69,12.92,29.19,16,0,1.93,84.542
410,batagay,67.63,134.63,-9.45,94,97,1.37,14.990000000000002
411,innisfail,-17.53,146.03,24.3,79,70,5.84,75.74000000000001
412,caravelas,-17.71,-39.25,23.63,93,55,3.81,74.53399999999999
413,ushumun,52.78,126.53,-2.99,81,49,5.52,26.618
414,ranong,9.97,98.63,24.0,100,75,4.48,75.2
415,perth,-31.93,115.83,17.22,93,90,3.1,62.995999999999995
416,porto santo,33.07,-16.34,20.0,72,40,3.6,68.0
417,sungaipenuh,-2.08,101.38,19.69,90,100,0.5,67.44200000000001
418,sorland,67.67,12.69,7.54,83,100,8.28,45.572
419,correntina,-13.34,-44.64,23.74,71,34,0.95,74.732
420,lasa,46.62,10.7,2.05,73,5,3.6,35.69
421,torbay,47.67,-52.73,5.11,80,20,4.1,41.198
422,manggar,-2.88,108.27,27.45,81,100,3.72,81.41
423,bur gabo,,,,,,,
424,maryborough,-25.53,152.7,24.38,46,19,5.9,75.884
425,tevaitoa,-16.78,-151.5,26.54,71,1,4.14,79.77199999999999
426,castro,-24.79,-50.01,19.49,58,68,1.14,67.082
427,kargasok,59.06,80.86,4.29,92,98,5.6,39.722
428,tilichiki,60.47,166.1,3.84,87,100,5.52,38.912
429,sao jose da coroa grande,-8.9,-35.15,24.35,80,8,4.34,75.83
430,saint-augustin,51.23,-58.65,4.64,71,0,5.14,40.352000000000004
431,owando,-0.48,15.9,21.97,97,72,0.87,71.54599999999999
432,port hedland,-20.32,118.57,26.0,74,0,4.1,78.8
433,ituni,,,,,,,
434,putai,46.66,1.99,8.0,93,86,2.1,46.4
435,coahuayana,18.73,-103.68,28.0,74,40,5.1,82.4
436,byron bay,-28.65,153.62,22.48,56,40,4.6,72.464
437,uvalde,29.37,-99.77,32.0,35,1,4.1,89.6
438,joshimath,30.57,79.57,12.22,39,0,1.51,53.996
439,mocambique,,,,,,,
440,banda aceh,5.56,95.32,27.69,66,95,3.46,81.842
441,xining,36.62,101.77,0.61,90,99,1.27,33.098
442,vila velha,-20.33,-40.29,23.94,94,90,0.5,75.092
443,sao felix do xingu,-6.64,-51.99,26.18,58,40,0.81,79.124
444,leh,34.17,77.58,1.47,74,1,1.4,34.646
445,oberkirch,48.53,8.08,5.75,88,100,1.57,42.35
446,la ronge,55.1,-105.28,1.0,55,40,9.3,33.8
447,shimoda,34.67,138.95,18.82,77,75,7.7,65.876
448,bandar-e torkaman,,,,,,,
449,isangel,-19.55,169.27,28.14,66,5,2.38,82.652
450,kodinsk,58.69,99.18,-4.51,97,86,0.84,23.882
451,barrow,71.29,-156.79,-3.0,53,1,6.7,26.6
452,ushuaia,-54.8,-68.3,4.0,86,75,9.8,39.2
453,marzuq,14.4,46.47,21.42,47,0,1.18,70.55600000000001
454,likasi,-10.98,26.73,16.89,94,46,1.92,62.402
455,lorengau,-2.02,147.27,25.75,90,100,4.57,78.35
456,buraydah,26.33,43.98,19.0,32,0,1,66.2
457,severo-kurilsk,50.68,156.12,11.52,90,93,7.61,52.736
458,zhezkazgan,47.8,67.71,8.36,63,72,1.95,47.048
459,dudinka,69.41,86.18,-2.0,100,75,14,28.4
460,pangnirtung,66.15,-65.71,-2.09,86,0,2.51,28.238
461,lodja,-3.48,23.43,21.44,81,16,0.2,70.592
462,lisala,2.15,21.52,21.11,97,84,0.71,69.998
463,bombay,19.01,72.85,27.0,94,40,1.5,80.6
464,sal rei,16.18,-22.92,26.0,74,40,5.7,78.8
465,puerto escondido,15.85,-97.07,30.0,62,75,2.6,86.0
466,babanusah,,,,,,,
467,clifton springs,-38.15,144.57,14.23,87,90,2.6,57.614
468,altay,47.87,88.12,0.54,87,98,1.66,32.972
469,ruteng,-8.61,120.47,22.64,69,75,0.53,72.752
470,manaure,11.78,-72.44,28.94,75,100,5.04,84.09200000000001
471,savonlinna,61.87,28.88,6.0,100,90,2.6,42.8
472,malanje,-9.54,16.34,18.39,94,3,1.54,65.102
473,hualmay,-11.1,-77.61,17.13,83,24,4.03,62.833999999999996
474,jizan,17.33,42.67,29.0,74,0,0.66,84.2
475,lages,-27.82,-50.33,13.02,75,0,0.72,55.436
476,tarudant,,,,,,,
477,macklin,52.33,-109.93,6.58,56,98,0.46,43.844
478,balkanabat,39.51,54.37,16.45,25,0,5.56,61.61
479,west melbourne,28.07,-80.65,25.92,69,1,3.1,78.656
480,warqla,,,,,,,
481,shenjiamen,29.96,122.3,20.24,69,13,6.28,68.432
482,buala,-8.14,159.59,27.81,73,100,1.74,82.05799999999999
483,karratha,-20.74,116.85,34.58,18,0,6.16,94.244
484,santo estevao,-12.43,-39.25,21.52,88,1,4.01,70.736
485,latur,18.4,76.58,21.73,96,100,7.55,71.114
486,mehkerek,46.78,21.45,7.15,93,100,10.8,44.870000000000005
487,casper,42.87,-106.31,20.54,22,1,14.9,68.972
488,beruwala,6.48,79.98,26.96,81,75,7.08,80.528
489,simplicio mendes,-7.85,-41.91,27.25,22,22,2.21,81.05
490,tiksi,71.69,128.87,-12.19,94,5,2.49,10.058
491,araouane,18.9,-3.53,33.94,17,0,3.98,93.092
492,beloha,-25.17,45.05,19.23,83,87,3.97,66.614
493,fiumicino,41.77,12.23,14.57,63,20,6.2,58.226
494,sayyan,15.17,44.32,12.04,42,4,0.86,53.672
495,alizai,33.54,70.35,16.93,37,0,1.36,62.474000000000004
496,ciudad bolivar,8.12,-63.55,28.79,62,82,0.38,83.822
497,fairbanks,64.84,-147.72,-1.31,46,75,2.1,29.642
498,zhangye,38.93,100.45,4.95,55,46,0.73,40.91
499,palembang,-2.92,104.75,25.0,94,20,2.6,77.0
500,kita,13.03,-9.49,25.0,73,99,1.53,77.0
501,utiroa,,,,,,,
502,hasaki,35.73,140.83,18.73,77,75,2.1,65.714
503,jinchang,38.5,102.17,6.56,51,71,2.29,43.808
504,huilong,31.81,121.66,21.48,65,0,1.79,70.664
505,bela palanka,43.22,22.31,8.72,93,40,0.5,47.696
506,charlottetown,46.24,-63.13,10.41,81,40,4.1,50.738
507,nantucket,41.28,-70.1,17.39,93,90,5.1,63.302
508,gazanjyk,39.24,55.52,11.04,37,0,4.87,51.872
509,lumeje,-11.55,20.78,21.82,61,17,1.78,71.276
510,mumford,5.26,-0.76,25.23,88,91,5.29,77.414
511,ler,8.3,30.14,22.9,92,99,1.05,73.22
512,yangambi,0.81,24.43,21.88,90,55,0.62,71.384
513,juba,4.85,31.58,20.96,91,28,0.65,69.72800000000001
514,imbituba,-28.24,-48.67,19.0,77,75,4.6,66.2
515,batagay-alyta,67.8,130.41,-10.83,92,15,1.17,12.506
516,chokurdakh,70.63,147.92,-7.81,95,50,1.15,17.942
517,kiruna,67.86,20.23,0.0,96,89,2.1,32.0
518,estancia,-11.27,-37.44,26.0,69,20,4.1,78.8
519,yanchukan,,,,,,,
520,rudnaya pristan,44.36,135.81,6.59,60,28,8.66,43.862
521,beyneu,45.32,55.2,9.07,49,0,4.36,48.326
522,bundaberg,-24.85,152.35,25.13,50,75,6.7,77.234
523,dzierzoniow,50.73,16.65,6.86,93,75,6.7,44.348
524,viesca,25.35,-102.8,32.0,21,40,5.48,89.6
525,gland,46.42,6.27,6.47,92,100,0.27,43.646
526,maniitsoq,65.42,-52.9,3.14,86,66,2.02,37.652
527,vestmanna,62.16,-7.17,6.0,100,27,0.5,42.8
528,gilgit,35.92,74.31,14.57,35,15,0.39,58.226
529,nikolayevka,53.13,47.2,10.02,47,97,2.35,50.036
530,smithers,54.78,-127.17,6.0,81,75,0.33,42.8
531,kawalu,-7.38,108.21,23.71,87,99,0.72,74.678
532,camacha,33.08,-16.33,20.0,72,40,3.6,68.0
533,tuatapere,-46.13,167.68,7.29,68,71,7.33,45.122
534,kampong thum,12.71,104.89,23.53,92,98,1.46,74.354
535,minggang,32.46,114.05,15.31,78,96,6.38,59.558
536,berbera,10.44,45.01,28.51,66,0,1.68,83.31800000000001
537,bellary,15.15,76.93,22.13,90,81,5.47,71.834
538,bilgram,27.18,80.03,24.56,59,64,1.88,76.208
539,jacareacanga,-6.22,-57.75,21.43,94,100,1.35,70.574
540,rio gallegos,-51.62,-69.22,5.0,68,40,14.4,41.0
541,pontivy,48,-3,6.84,100,56,2.6,44.312
542,saint-denis,48.92,2.33,6.76,100,100,1.5,44.168
543,suoyarvi,62.08,32.35,4.76,96,63,0.81,40.568
544,toora-khem,52.47,96.11,-0.75,98,100,0.73,30.65
545,sigerfjord,,,,,,,
546,vostok,46.49,135.88,-1.48,90,96,6.04,29.336
547,viligili,,,,,,,
548,sakakah,29.97,40.21,23.0,15,36,3.6,73.4
549,college,64.86,-147.8,-1.46,80,75,1.5,29.372
550,cooma,-36.23,149.13,11.0,81,90,6.2,51.8
551,antalaha,-14.9,50.28,20.62,88,2,2.35,69.116
552,bilibino,68.05,166.44,-3.07,96,100,1.53,26.474
553,george town,5.41,100.34,24.0,94,20,1,75.2
554,presidencia roque saenz pena,-26.79,-60.44,25.69,36,0,5.21,78.242
555,santa fe,-31.63,-60.7,21.67,42,47,3.82,71.006
556,potosi,-19.58,-65.75,7.68,71,89,3.69,45.824
557,uige,-7.61,15.06,19.23,91,51,0.88,66.614
558,mangrol,21.12,70.12,27.53,58,100,4.38,81.554
559,durres,41.32,19.44,13.0,93,90,1,55.4
560,balakhta,55.38,91.6,1.62,96,100,2.5,34.916
